[{
  "name": "atlanta",
  "state": " GA",
  "site": "atlanta",
  "area_key": "atl",
  "area_name": "atlanta",
  "latitude": 33.748901,
  "longitude": -84.3881
}, {
  "name": "atlanta",
  "state": " GA",
  "site": "atlanta",
  "area_key": "nat",
  "area_name": "otp north",
  "latitude": 33.748901,
  "longitude": -84.3881
}, {
  "name": "atlanta",
  "state": " GA",
  "site": "atlanta",
  "area_key": "eat",
  "area_name": "otp east",
  "latitude": 33.748901,
  "longitude": -84.3881
}, {
  "name": "atlanta",
  "state": " GA",
  "site": "atlanta",
  "area_key": "sat",
  "area_name": "otp south",
  "latitude": 33.748901,
  "longitude": -84.3881
}, {
  "name": "atlanta",
  "state": " GA",
  "site": "atlanta",
  "area_key": "wat",
  "area_name": "otp west",
  "latitude": 33.748901,
  "longitude": -84.3881
}, {
  "name": "boston",
  "state": "",
  "site": "boston",
  "area_key": "gbs",
  "area_name": "boston\\/camb\\/brook",
  "latitude": 42.358299,
  "longitude": -71.060303
}, {
  "name": "boston",
  "state": "",
  "site": "boston",
  "area_key": "nwb",
  "area_name": "northwest\\/merrimack",
  "latitude": 42.358299,
  "longitude": -71.060303
}, {
  "name": "boston",
  "state": "",
  "site": "boston",
  "area_key": "bmw",
  "area_name": "metro west",
  "latitude": 42.358299,
  "longitude": -71.060303
}, {
  "name": "boston",
  "state": "",
  "site": "boston",
  "area_key": "nos",
  "area_name": "north shore",
  "latitude": 42.358299,
  "longitude": -71.060303
}, {
  "name": "boston",
  "state": "",
  "site": "boston",
  "area_key": "sob",
  "area_name": "south shore",
  "latitude": 42.358299,
  "longitude": -71.060303
}, {
  "name": "chicago",
  "state": "",
  "site": "chicago",
  "area_key": "chc",
  "area_name": "city of chicago",
  "latitude": 41.849998,
  "longitude": -87.650002
}, {
  "name": "chicago",
  "state": "",
  "site": "chicago",
  "area_key": "nch",
  "area_name": "north chicagoland",
  "latitude": 41.849998,
  "longitude": -87.650002
}, {
  "name": "chicago",
  "state": "",
  "site": "chicago",
  "area_key": "wcl",
  "area_name": "west chicagoland",
  "latitude": 41.849998,
  "longitude": -87.650002
}, {
  "name": "chicago",
  "state": "",
  "site": "chicago",
  "area_key": "sox",
  "area_name": "south chicagoland",
  "latitude": 41.849998,
  "longitude": -87.650002
}, {
  "name": "chicago",
  "state": "",
  "site": "chicago",
  "area_key": "nwi",
  "area_name": "northwest indiana",
  "latitude": 41.849998,
  "longitude": -87.650002
}, {
  "name": "chicago",
  "state": "",
  "site": "chicago",
  "area_key": "nwc",
  "area_name": "northwest suburbs",
  "latitude": 41.849998,
  "longitude": -87.650002
}, {
  "name": "dallas  fort worth",
  "state": "",
  "site": "dallas",
  "area_key": "dal",
  "area_name": "dallas",
  "latitude": 32.783298,
  "longitude": -96.800003
}, {
  "name": "dallas  fort worth",
  "state": "",
  "site": "dallas",
  "area_key": "ftw",
  "area_name": "fort worth",
  "latitude": 32.783298,
  "longitude": -96.800003
}, {
  "name": "dallas  fort worth",
  "state": "",
  "site": "dallas",
  "area_key": "mdf",
  "area_name": "mid cities",
  "latitude": 32.783298,
  "longitude": -96.800003
}, {
  "name": "dallas  fort worth",
  "state": "",
  "site": "dallas",
  "area_key": "ndf",
  "area_name": "north DFW",
  "latitude": 32.783298,
  "longitude": -96.800003
}, {
  "name": "dallas  fort worth",
  "state": "",
  "site": "dallas",
  "area_key": "sdf",
  "area_name": "south DFW",
  "latitude": 32.783298,
  "longitude": -96.800003
}, {
  "name": "detroit metro",
  "state": "",
  "site": "detroit",
  "area_key": "mcb",
  "area_name": "macomb co",
  "latitude": 42.331402,
  "longitude": -83.045799
}, {
  "name": "detroit metro",
  "state": "",
  "site": "detroit",
  "area_key": "wyn",
  "area_name": "wayne co",
  "latitude": 42.331402,
  "longitude": -83.045799
}, {
  "name": "detroit metro",
  "state": "",
  "site": "detroit",
  "area_key": "okl",
  "area_name": "oakland co",
  "latitude": 42.331402,
  "longitude": -83.045799
}, {
  "name": "ft myers  SW florida",
  "state": "",
  "site": "fortmyers",
  "area_key": "lee",
  "area_name": "lee county",
  "latitude": 26.629999,
  "longitude": -81.849998
}, {
  "name": "ft myers  SW florida",
  "state": "",
  "site": "fortmyers",
  "area_key": "chl",
  "area_name": "charlotte co",
  "latitude": 26.629999,
  "longitude": -81.849998
}, {
  "name": "ft myers  SW florida",
  "state": "",
  "site": "fortmyers",
  "area_key": "col",
  "area_name": "collier co",
  "latitude": 26.629999,
  "longitude": -81.849998
}, {
  "name": "hawaii",
  "state": "",
  "site": "honolulu",
  "area_key": "oah",
  "area_name": "oahu",
  "latitude": 21.311399,
  "longitude": -157.796005
}, {
  "name": "hawaii",
  "state": "",
  "site": "honolulu",
  "area_key": "big",
  "area_name": "big island",
  "latitude": 21.311399,
  "longitude": -157.796005
}, {
  "name": "hawaii",
  "state": "",
  "site": "honolulu",
  "area_key": "mau",
  "area_name": "maui",
  "latitude": 21.311399,
  "longitude": -157.796005
}, {
  "name": "hawaii",
  "state": "",
  "site": "honolulu",
  "area_key": "kau",
  "area_name": "kauai",
  "latitude": 21.311399,
  "longitude": -157.796005
}, {
  "name": "hawaii",
  "state": "",
  "site": "honolulu",
  "area_key": "mol",
  "area_name": "molokai",
  "latitude": 21.311399,
  "longitude": -157.796005
}, {
  "name": "los angeles",
  "state": "",
  "site": "losangeles",
  "area_key": "wst",
  "area_name": "westside-southbay",
  "latitude": 34.0522,
  "longitude": -118.242996
}, {
  "name": "los angeles",
  "state": "",
  "site": "losangeles",
  "area_key": "sfv",
  "area_name": "SF valley",
  "latitude": 34.0522,
  "longitude": -118.242996
}, {
  "name": "los angeles",
  "state": "",
  "site": "losangeles",
  "area_key": "lac",
  "area_name": "central LA",
  "latitude": 34.0522,
  "longitude": -118.242996
}, {
  "name": "los angeles",
  "state": "",
  "site": "losangeles",
  "area_key": "sgv",
  "area_name": "san gabriel valley",
  "latitude": 34.0522,
  "longitude": -118.242996
}, {
  "name": "los angeles",
  "state": "",
  "site": "losangeles",
  "area_key": "lgb",
  "area_name": "long beach \\/ 562",
  "latitude": 34.0522,
  "longitude": -118.242996
}, {
  "name": "los angeles",
  "state": "",
  "site": "losangeles",
  "area_key": "ant",
  "area_name": "antelope valley",
  "latitude": 34.0522,
  "longitude": -118.242996
}, {
  "name": "minneapolis  st paul",
  "state": "",
  "site": "minneapolis",
  "area_key": "hnp",
  "area_name": "hennepin co",
  "latitude": 44.98,
  "longitude": -93.263603
}, {
  "name": "minneapolis  st paul",
  "state": "",
  "site": "minneapolis",
  "area_key": "ram",
  "area_name": "ramsey co",
  "latitude": 44.98,
  "longitude": -93.263603
}, {
  "name": "minneapolis  st paul",
  "state": "",
  "site": "minneapolis",
  "area_key": "ank",
  "area_name": "anok\\/chis\\/isa",
  "latitude": 44.98,
  "longitude": -93.263603
}, {
  "name": "minneapolis  st paul",
  "state": "",
  "site": "minneapolis",
  "area_key": "wsh",
  "area_name": "washington\\/WI",
  "latitude": 44.98,
  "longitude": -93.263603
}, {
  "name": "minneapolis  st paul",
  "state": "",
  "site": "minneapolis",
  "area_key": "dak",
  "area_name": "dakota\\/scott",
  "latitude": 44.98,
  "longitude": -93.263603
}, {
  "name": "minneapolis  st paul",
  "state": "",
  "site": "minneapolis",
  "area_key": "csw",
  "area_name": "carv\\/sher\\/wri",
  "latitude": 44.98,
  "longitude": -93.263603
}, {
  "name": "new york city",
  "state": "",
  "site": "newyork",
  "area_key": "mnh",
  "area_name": "manhattan",
  "latitude": 40.714199,
  "longitude": -74.006401
}, {
  "name": "new york city",
  "state": "",
  "site": "newyork",
  "area_key": "brk",
  "area_name": "brooklyn",
  "latitude": 40.714199,
  "longitude": -74.006401
}, {
  "name": "new york city",
  "state": "",
  "site": "newyork",
  "area_key": "que",
  "area_name": "queens",
  "latitude": 40.714199,
  "longitude": -74.006401
}, {
  "name": "new york city",
  "state": "",
  "site": "newyork",
  "area_key": "brx",
  "area_name": "bronx",
  "latitude": 40.714199,
  "longitude": -74.006401
}, {
  "name": "new york city",
  "state": "",
  "site": "newyork",
  "area_key": "stn",
  "area_name": "staten island",
  "latitude": 40.714199,
  "longitude": -74.006401
}, {
  "name": "new york city",
  "state": "",
  "site": "newyork",
  "area_key": "jsy",
  "area_name": "new jersey",
  "latitude": 40.714199,
  "longitude": -74.006401
}, {
  "name": "new york city",
  "state": "",
  "site": "newyork",
  "area_key": "lgi",
  "area_name": "long island",
  "latitude": 40.714199,
  "longitude": -74.006401
}, {
  "name": "new york city",
  "state": "",
  "site": "newyork",
  "area_key": "wch",
  "area_name": "westchester",
  "latitude": 40.714199,
  "longitude": -74.006401
}, {
  "name": "new york city",
  "state": "",
  "site": "newyork",
  "area_key": "fct",
  "area_name": "fairfield",
  "latitude": 40.714199,
  "longitude": -74.006401
}, {
  "name": "phoenix",
  "state": " AZ",
  "site": "phoenix",
  "area_key": "cph",
  "area_name": "central\\/south phx",
  "latitude": 33.448299,
  "longitude": -112.072998
}, {
  "name": "phoenix",
  "state": " AZ",
  "site": "phoenix",
  "area_key": "evl",
  "area_name": "east valley",
  "latitude": 33.448299,
  "longitude": -112.072998
}, {
  "name": "phoenix",
  "state": " AZ",
  "site": "phoenix",
  "area_key": "nph",
  "area_name": "phx north",
  "latitude": 33.448299,
  "longitude": -112.072998
}, {
  "name": "phoenix",
  "state": " AZ",
  "site": "phoenix",
  "area_key": "wvl",
  "area_name": "west valley",
  "latitude": 33.448299,
  "longitude": -112.072998
}, {
  "name": "portland",
  "state": " OR",
  "site": "portland",
  "area_key": "mlt",
  "area_name": "multnomah co",
  "latitude": 45.523602,
  "longitude": -122.675003
}, {
  "name": "portland",
  "state": " OR",
  "site": "portland",
  "area_key": "wsc",
  "area_name": "washington co",
  "latitude": 45.523602,
  "longitude": -122.675003
}, {
  "name": "portland",
  "state": " OR",
  "site": "portland",
  "area_key": "clk",
  "area_name": "clark\\/cowlitz",
  "latitude": 45.523602,
  "longitude": -122.675003
}, {
  "name": "portland",
  "state": " OR",
  "site": "portland",
  "area_key": "clc",
  "area_name": "clackamas co",
  "latitude": 45.523602,
  "longitude": -122.675003
}, {
  "name": "portland",
  "state": " OR",
  "site": "portland",
  "area_key": "nco",
  "area_name": "north coast",
  "latitude": 45.523602,
  "longitude": -122.675003
}, {
  "name": "portland",
  "state": " OR",
  "site": "portland",
  "area_key": "yam",
  "area_name": "yamhill co",
  "latitude": 45.523602,
  "longitude": -122.675003
}, {
  "name": "portland",
  "state": " OR",
  "site": "portland",
  "area_key": "grg",
  "area_name": "columbia gorge",
  "latitude": 45.523602,
  "longitude": -122.675003
}, {
  "name": "san diego",
  "state": "",
  "site": "sandiego",
  "area_key": "csd",
  "area_name": "city of san diego",
  "latitude": 32.715302,
  "longitude": -117.155998
}, {
  "name": "san diego",
  "state": "",
  "site": "sandiego",
  "area_key": "nsd",
  "area_name": "north SD county",
  "latitude": 32.715302,
  "longitude": -117.155998
}, {
  "name": "san diego",
  "state": "",
  "site": "sandiego",
  "area_key": "esd",
  "area_name": "east SD county",
  "latitude": 32.715302,
  "longitude": -117.155998
}, {
  "name": "san diego",
  "state": "",
  "site": "sandiego",
  "area_key": "ssd",
  "area_name": "south SD county",
  "latitude": 32.715302,
  "longitude": -117.155998
}, {
  "name": "seattle-tacoma",
  "state": "",
  "site": "seattle",
  "area_key": "see",
  "area_name": "seattle",
  "latitude": 47.6064,
  "longitude": -122.331001
}, {
  "name": "seattle-tacoma",
  "state": "",
  "site": "seattle",
  "area_key": "est",
  "area_name": "eastside",
  "latitude": 47.6064,
  "longitude": -122.331001
}, {
  "name": "seattle-tacoma",
  "state": "",
  "site": "seattle",
  "area_key": "sno",
  "area_name": "snohomish co",
  "latitude": 47.6064,
  "longitude": -122.331001
}, {
  "name": "seattle-tacoma",
  "state": "",
  "site": "seattle",
  "area_key": "kit",
  "area_name": "kitsap co",
  "latitude": 47.6064,
  "longitude": -122.331001
}, {
  "name": "seattle-tacoma",
  "state": "",
  "site": "seattle",
  "area_key": "tac",
  "area_name": "tacoma",
  "latitude": 47.6064,
  "longitude": -122.331001
}, {
  "name": "seattle-tacoma",
  "state": "",
  "site": "seattle",
  "area_key": "oly",
  "area_name": "olympia",
  "latitude": 47.6064,
  "longitude": -122.331001
}, {
  "name": "seattle-tacoma",
  "state": "",
  "site": "seattle",
  "area_key": "skc",
  "area_name": "south king",
  "latitude": 47.6064,
  "longitude": -122.331001
}, {
  "name": "SF bay area",
  "state": "",
  "site": "sfbay",
  "area_key": "sfc",
  "area_name": "san francisco",
  "latitude": 37.5,
  "longitude": -122.25
}, {
  "name": "SF bay area",
  "state": "",
  "site": "sfbay",
  "area_key": "sby",
  "area_name": "south bay",
  "latitude": 37.5,
  "longitude": -122.25
}, {
  "name": "SF bay area",
  "state": "",
  "site": "sfbay",
  "area_key": "eby",
  "area_name": "east bay",
  "latitude": 37.5,
  "longitude": -122.25
}, {
  "name": "SF bay area",
  "state": "",
  "site": "sfbay",
  "area_key": "pen",
  "area_name": "peninsula",
  "latitude": 37.5,
  "longitude": -122.25
}, {
  "name": "SF bay area",
  "state": "",
  "site": "sfbay",
  "area_key": "nby",
  "area_name": "north bay",
  "latitude": 37.5,
  "longitude": -122.25
}, {
  "name": "SF bay area",
  "state": "",
  "site": "sfbay",
  "area_key": "scz",
  "area_name": "santa cruz",
  "latitude": 37.5,
  "longitude": -122.25
}, {
  "name": "south florida",
  "state": "",
  "site": "miami",
  "area_key": "mdc",
  "area_name": "miami \\/ dade",
  "latitude": 25.773899,
  "longitude": -80.193901
}, {
  "name": "south florida",
  "state": "",
  "site": "miami",
  "area_key": "brw",
  "area_name": "broward county",
  "latitude": 25.773899,
  "longitude": -80.193901
}, {
  "name": "south florida",
  "state": "",
  "site": "miami",
  "area_key": "pbc",
  "area_name": "palm beach co",
  "latitude": 25.773899,
  "longitude": -80.193901
}, {
  "name": "tampa bay area",
  "state": "",
  "site": "tampa",
  "area_key": "hdo",
  "area_name": "hernando co",
  "latitude": 28.0,
  "longitude": -82.449997
}, {
  "name": "tampa bay area",
  "state": "",
  "site": "tampa",
  "area_key": "hil",
  "area_name": "hillsborough co",
  "latitude": 28.0,
  "longitude": -82.449997
}, {
  "name": "tampa bay area",
  "state": "",
  "site": "tampa",
  "area_key": "psc",
  "area_name": "pasco co",
  "latitude": 28.0,
  "longitude": -82.449997
}, {
  "name": "tampa bay area",
  "state": "",
  "site": "tampa",
  "area_key": "pnl",
  "area_name": "pinellas co",
  "latitude": 28.0,
  "longitude": -82.449997
}, {
  "name": "washington",
  "state": " DC",
  "site": "washingtondc",
  "area_key": "doc",
  "area_name": "district of columbia",
  "latitude": 38.889999,
  "longitude": -77.029999
}, {
  "name": "washington",
  "state": " DC",
  "site": "washingtondc",
  "area_key": "nva",
  "area_name": "northern virginia",
  "latitude": 38.889999,
  "longitude": -77.029999
}, {
  "name": "washington",
  "state": " DC",
  "site": "washingtondc",
  "area_key": "mld",
  "area_name": "maryland",
  "latitude": 38.889999,
  "longitude": -77.029999
}, {
  "name": "abilene",
  "state": " TX",
  "site": "abilene",
  "latitude": 32.448601,
  "longitude": -99.732803
}, {
  "name": "akron  canton",
  "state": "",
  "site": "akroncanton",
  "latitude": 41.081402,
  "longitude": -81.519203
}, {
  "name": "albany",
  "state": " GA",
  "site": "albanyga",
  "latitude": 31.575026,
  "longitude": -84.159393
}, {
  "name": "albany",
  "state": " NY",
  "site": "albany",
  "latitude": 42.6525,
  "longitude": -73.756699
}, {
  "name": "albuquerque",
  "state": "",
  "site": "albuquerque",
  "latitude": 35.0844,
  "longitude": -106.651001
}, {
  "name": "altoona-johnstown",
  "state": "",
  "site": "altoona",
  "latitude": 40.5186,
  "longitude": -78.394997
}, {
  "name": "amarillo",
  "state": " TX",
  "site": "amarillo",
  "latitude": 35.221901,
  "longitude": -101.831001
}, {
  "name": "ames",
  "state": " IA",
  "site": "ames",
  "latitude": 42.034698,
  "longitude": -93.619698
}, {
  "name": "anchorage  mat-su",
  "state": "",
  "site": "anchorage",
  "latitude": 61.196201,
  "longitude": -149.886002
}, {
  "name": "annapolis",
  "state": " MD",
  "site": "annapolis",
  "latitude": 38.978298,
  "longitude": -76.4925
}, {
  "name": "ann arbor",
  "state": " MI",
  "site": "annarbor",
  "latitude": 42.270802,
  "longitude": -83.726402
}, {
  "name": "appleton-oshkosh-FDL",
  "state": "",
  "site": "appleton",
  "latitude": 44.261902,
  "longitude": -88.415298
}, {
  "name": "asheville",
  "state": " NC",
  "site": "asheville",
  "latitude": 35.6008,
  "longitude": -82.554199
}, {
  "name": "ashtabula",
  "state": " OH",
  "site": "ashtabula",
  "latitude": 41.865101,
  "longitude": -80.789803
}, {
  "name": "athens",
  "state": " GA",
  "site": "athensga",
  "latitude": 33.9608,
  "longitude": -83.378098
}, {
  "name": "athens",
  "state": " OH",
  "site": "athensohio",
  "latitude": 39.329201,
  "longitude": -82.101402
}, {
  "name": "auburn",
  "state": " AL",
  "site": "auburn",
  "latitude": 32.609699,
  "longitude": -85.480797
}, {
  "name": "augusta",
  "state": " GA",
  "site": "augusta",
  "latitude": 33.470798,
  "longitude": -81.974998
}, {
  "name": "austin",
  "state": " TX",
  "site": "austin",
  "latitude": 30.266899,
  "longitude": -97.742798
}, {
  "name": "bakersfield",
  "state": " CA",
  "site": "bakersfield",
  "latitude": 35.373299,
  "longitude": -119.017998
}, {
  "name": "baltimore",
  "state": " MD",
  "site": "baltimore",
  "latitude": 39.307999,
  "longitude": -76.616997
}, {
  "name": "baton rouge",
  "state": "",
  "site": "batonrouge",
  "latitude": 30.458099,
  "longitude": -91.140198
}, {
  "name": "battle creek",
  "state": " MI",
  "site": "battlecreek",
  "latitude": 42.321201,
  "longitude": -85.179703
}, {
  "name": "beaumont  port arthur",
  "state": "",
  "site": "beaumont",
  "latitude": 30.0762,
  "longitude": -94.112999
}, {
  "name": "bellingham",
  "state": " WA",
  "site": "bellingham",
  "latitude": 48.759701,
  "longitude": -122.487
}, {
  "name": "bemidji",
  "state": " MN",
  "site": "bemidji",
  "latitude": 47.473598,
  "longitude": -94.880302
}, {
  "name": "bend",
  "state": " OR",
  "site": "bend",
  "latitude": 44.0583,
  "longitude": -121.314003
}, {
  "name": "billings",
  "state": " MT",
  "site": "billings",
  "latitude": 45.783298,
  "longitude": -108.500999
}, {
  "name": "binghamton",
  "state": " NY",
  "site": "binghamton",
  "latitude": 42.098598,
  "longitude": -75.918297
}, {
  "name": "birmingham",
  "state": " AL",
  "site": "bham",
  "latitude": 33.520599,
  "longitude": -86.802498
}, {
  "name": "bismarck",
  "state": " ND",
  "site": "bismarck",
  "latitude": 46.807579,
  "longitude": -100.777588
}, {
  "name": "bloomington",
  "state": " IN",
  "site": "bloomington",
  "latitude": 39.165298,
  "longitude": -86.526398
}, {
  "name": "bloomington-normal",
  "state": "",
  "site": "bn",
  "latitude": 40.4842,
  "longitude": -88.993599
}, {
  "name": "boise",
  "state": " ID",
  "site": "boise",
  "latitude": 43.613602,
  "longitude": -116.202003
}, {
  "name": "boone",
  "state": " NC",
  "site": "boone",
  "latitude": 36.216702,
  "longitude": -81.674698
}, {
  "name": "boulder",
  "state": " CO",
  "site": "boulder",
  "latitude": 40.014999,
  "longitude": -105.269997
}, {
  "name": "bowling green",
  "state": " KY",
  "site": "bgky",
  "latitude": 36.990299,
  "longitude": -86.443604
}, {
  "name": "bozeman",
  "state": " MT",
  "site": "bozeman",
  "latitude": 45.679699,
  "longitude": -111.039001
}, {
  "name": "brainerd",
  "state": " MN",
  "site": "brainerd",
  "latitude": 46.354511,
  "longitude": -94.196777
}, {
  "name": "brownsville",
  "state": " TX",
  "site": "brownsville",
  "latitude": 25.9014,
  "longitude": -97.4972
}, {
  "name": "brunswick",
  "state": " GA",
  "site": "brunswick",
  "latitude": 31.1497,
  "longitude": -81.491699
}, {
  "name": "buffalo",
  "state": " NY",
  "site": "buffalo",
  "latitude": 42.886398,
  "longitude": -78.878601
}, {
  "name": "butte",
  "state": " MT",
  "site": "butte",
  "latitude": 46.004593,
  "longitude": -112.543945
}, {
  "name": "cape cod  islands",
  "state": "",
  "site": "capecod",
  "latitude": 41.6889,
  "longitude": -70.296898
}, {
  "name": "catskills",
  "state": "",
  "site": "catskills",
  "latitude": 42.0,
  "longitude": -74.383301
}, {
  "name": "cedar rapids",
  "state": " IA",
  "site": "cedarrapids",
  "latitude": 42.008301,
  "longitude": -91.643898
}, {
  "name": "central louisiana",
  "state": "",
  "site": "cenla",
  "latitude": 31.297327,
  "longitude": -92.469177
}, {
  "name": "central michigan",
  "state": "",
  "site": "centralmich",
  "latitude": 43.598,
  "longitude": -84.780998
}, {
  "name": "central NJ",
  "state": "",
  "site": "cnj",
  "latitude": 40.363098,
  "longitude": -74.6614
}, {
  "name": "champaign urbana",
  "state": "",
  "site": "chambana",
  "latitude": 40.110001,
  "longitude": -88.25
}, {
  "name": "charleston",
  "state": " SC",
  "site": "charleston",
  "latitude": 32.776402,
  "longitude": -79.931099
}, {
  "name": "charleston",
  "state": " WV",
  "site": "charlestonwv",
  "latitude": 38.349701,
  "longitude": -81.632797
}, {
  "name": "charlotte",
  "state": " NC",
  "site": "charlotte",
  "latitude": 35.226898,
  "longitude": -80.8433
}, {
  "name": "charlottesville",
  "state": " VA",
  "site": "charlottesville",
  "latitude": 38.0345,
  "longitude": -78.486504
}, {
  "name": "chattanooga",
  "state": " TN",
  "site": "chattanooga",
  "latitude": 35.045601,
  "longitude": -85.3097
}, {
  "name": "chautauqua",
  "state": " NY",
  "site": "chautauqua",
  "latitude": 42.209702,
  "longitude": -79.466698
}, {
  "name": "chico",
  "state": " CA",
  "site": "chico",
  "latitude": 39.7286,
  "longitude": -121.835999
}, {
  "name": "chillicothe",
  "state": " OH",
  "site": "chillicothe",
  "latitude": 39.333099,
  "longitude": -82.982399
}, {
  "name": "cincinnati",
  "state": " OH",
  "site": "cincinnati",
  "latitude": 39.1619,
  "longitude": -84.456902
}, {
  "name": "clarksville",
  "state": " TN",
  "site": "clarksville",
  "latitude": 36.529701,
  "longitude": -87.359398
}, {
  "name": "cleveland",
  "state": " OH",
  "site": "cleveland",
  "latitude": 41.499401,
  "longitude": -81.695602
}, {
  "name": "clovis  portales",
  "state": "",
  "site": "clovis",
  "latitude": 34.40691,
  "longitude": -103.200073
}, {
  "name": "college station",
  "state": " TX",
  "site": "collegestation",
  "latitude": 30.6278,
  "longitude": -96.334198
}, {
  "name": "colorado springs",
  "state": "",
  "site": "cosprings",
  "latitude": 38.8339,
  "longitude": -104.820999
}, {
  "name": "columbia  jeff city",
  "state": "",
  "site": "columbiamo",
  "latitude": 38.951698,
  "longitude": -92.3339
}, {
  "name": "columbia",
  "state": " SC",
  "site": "columbia",
  "latitude": 34.000599,
  "longitude": -81.035004
}, {
  "name": "columbus",
  "state": " GA",
  "site": "columbusga",
  "latitude": 32.4608,
  "longitude": -84.987801
}, {
  "name": "columbus",
  "state": " OH",
  "site": "columbus",
  "latitude": 39.961102,
  "longitude": -82.998901
}, {
  "name": "cookeville",
  "state": " TN",
  "site": "cookeville",
  "latitude": 36.1628,
  "longitude": -85.501602
}, {
  "name": "corpus christi",
  "state": " TX",
  "site": "corpuschristi",
  "latitude": 27.800301,
  "longitude": -97.396103
}, {
  "name": "corvallisalbany",
  "state": "",
  "site": "corvallis",
  "latitude": 44.564701,
  "longitude": -123.261002
}, {
  "name": "cumberland valley",
  "state": "",
  "site": "chambersburg",
  "latitude": 39.9333,
  "longitude": -77.633301
}, {
  "name": "danville",
  "state": "",
  "site": "danville",
  "latitude": 36.5872,
  "longitude": -79.404404
}, {
  "name": "daytona beach",
  "state": "",
  "site": "daytona",
  "latitude": 29.2106,
  "longitude": -81.023102
}, {
  "name": "dayton  springfield",
  "state": "",
  "site": "dayton",
  "latitude": 39.7589,
  "longitude": -84.191704
}, {
  "name": "decatur",
  "state": " IL",
  "site": "decatur",
  "latitude": 39.840302,
  "longitude": -88.954697
}, {
  "name": "deep east texas",
  "state": "",
  "site": "nacogdoches",
  "latitude": 31.604271,
  "longitude": -94.654083
}, {
  "name": "delaware",
  "state": "",
  "site": "delaware",
  "latitude": 39.145699,
  "longitude": -75.483498
}, {
  "name": "del rio  eagle pass",
  "state": "",
  "site": "delrio",
  "latitude": 29.372601,
  "longitude": -100.898438
}, {
  "name": "denver",
  "state": " CO",
  "site": "denver",
  "latitude": 39.739201,
  "longitude": -104.984001
}, {
  "name": "des moines",
  "state": " IA",
  "site": "desmoines",
  "latitude": 41.600601,
  "longitude": -93.608902
}, {
  "name": "dothan",
  "state": " AL",
  "site": "dothan",
  "latitude": 31.223101,
  "longitude": -85.390602
}, {
  "name": "dubuque",
  "state": "",
  "site": "dubuque",
  "latitude": 42.500599,
  "longitude": -90.664398
}, {
  "name": "duluth  superior",
  "state": "",
  "site": "duluth",
  "latitude": 46.783298,
  "longitude": -92.1064
}, {
  "name": "eastern CO",
  "state": "",
  "site": "eastco",
  "latitude": 39.232254,
  "longitude": -102.832031
}, {
  "name": "eastern CT",
  "state": "",
  "site": "newlondon",
  "latitude": 41.344101,
  "longitude": -72.1036
}, {
  "name": "eastern kentucky",
  "state": "",
  "site": "eastky",
  "latitude": 37.516998,
  "longitude": -82.806
}, {
  "name": "eastern montana",
  "state": "",
  "site": "montana",
  "latitude": 47.1,
  "longitude": -104.7
}, {
  "name": "eastern NC",
  "state": "",
  "site": "eastnc",
  "latitude": 35.584999,
  "longitude": -77.372498
}, {
  "name": "eastern panhandle",
  "state": "",
  "site": "martinsburg",
  "latitude": 39.4561,
  "longitude": -77.964203
}, {
  "name": "eastern shore",
  "state": "",
  "site": "easternshore",
  "latitude": 38.7701,
  "longitude": -76.072098
}, {
  "name": "east idaho",
  "state": "",
  "site": "eastidaho",
  "latitude": 43.4529,
  "longitude": -112.782997
}, {
  "name": "east oregon",
  "state": "",
  "site": "eastoregon",
  "latitude": 44.7565,
  "longitude": -117.853996
}, {
  "name": "eau claire",
  "state": " WI",
  "site": "eauclaire",
  "latitude": 44.811401,
  "longitude": -91.498299
}, {
  "name": "elko",
  "state": " NV",
  "site": "elko",
  "latitude": 40.832401,
  "longitude": -115.763
}, {
  "name": "elmira-corning",
  "state": "",
  "site": "elmira",
  "latitude": 42.089699,
  "longitude": -76.808098
}, {
  "name": "el paso",
  "state": " TX",
  "site": "elpaso",
  "latitude": 31.7586,
  "longitude": -106.486
}, {
  "name": "erie",
  "state": " PA",
  "site": "erie",
  "latitude": 42.1292,
  "longitude": -80.085297
}, {
  "name": "eugene",
  "state": " OR",
  "site": "eugene",
  "latitude": 44.0522,
  "longitude": -123.085999
}, {
  "name": "evansville",
  "state": " IN",
  "site": "evansville",
  "latitude": 37.974701,
  "longitude": -87.555801
}, {
  "name": "fairbanks",
  "state": " AK",
  "site": "fairbanks",
  "latitude": 64.837799,
  "longitude": -147.716003
}, {
  "name": "fargo  moorhead",
  "state": "",
  "site": "fargo",
  "latitude": 46.877201,
  "longitude": -96.789398
}, {
  "name": "farmington",
  "state": " NM",
  "site": "farmington",
  "latitude": 36.7281,
  "longitude": -108.218002
}, {
  "name": "fayetteville",
  "state": " AR",
  "site": "fayar",
  "latitude": 36.0625,
  "longitude": -94.157204
}, {
  "name": "fayetteville",
  "state": " NC",
  "site": "fayetteville",
  "latitude": 35.052502,
  "longitude": -78.878601
}, {
  "name": "finger lakes",
  "state": " NY",
  "site": "fingerlakes",
  "latitude": 42.516651,
  "longitude": -76.816406
}, {
  "name": "flagstaff  sedona",
  "state": "",
  "site": "flagstaff",
  "latitude": 35.198101,
  "longitude": -111.651001
}, {
  "name": "flint",
  "state": " MI",
  "site": "flint",
  "latitude": 43.012501,
  "longitude": -83.6875
}, {
  "name": "florence  muscle shoals",
  "state": "",
  "site": "shoals",
  "latitude": 34.799702,
  "longitude": -87.6772
}, {
  "name": "florence",
  "state": " SC",
  "site": "florencesc",
  "latitude": 34.195301,
  "longitude": -79.762802
}, {
  "name": "florida keys",
  "state": "",
  "site": "keys",
  "latitude": 24.666901,
  "longitude": -81.544197
}, {
  "name": "fort collins  north CO",
  "state": "",
  "site": "fortcollins",
  "latitude": 40.5853,
  "longitude": -105.084
}, {
  "name": "fort dodge",
  "state": " IA",
  "site": "fortdodge",
  "latitude": 42.497501,
  "longitude": -94.167999
}, {
  "name": "fort smith",
  "state": " AR",
  "site": "fortsmith",
  "latitude": 35.385799,
  "longitude": -94.3983
}, {
  "name": "fort wayne",
  "state": " IN",
  "site": "fortwayne",
  "latitude": 41.1306,
  "longitude": -85.128899
}, {
  "name": "frederick",
  "state": " MD",
  "site": "frederick",
  "latitude": 39.414299,
  "longitude": -77.4105
}, {
  "name": "fredericksburg",
  "state": " VA",
  "site": "fredericksburg",
  "latitude": 38.3018,
  "longitude": -77.470802
}, {
  "name": "fresno  madera",
  "state": "",
  "site": "fresno",
  "latitude": 36.747799,
  "longitude": -119.771004
}, {
  "name": "gadsden-anniston",
  "state": "",
  "site": "gadsden",
  "latitude": 34.014198,
  "longitude": -86.006699
}, {
  "name": "gainesville",
  "state": " FL",
  "site": "gainesville",
  "latitude": 29.6514,
  "longitude": -82.324997
}, {
  "name": "galveston",
  "state": " TX",
  "site": "galveston",
  "latitude": 29.281099,
  "longitude": -94.825798
}, {
  "name": "glens falls",
  "state": " NY",
  "site": "glensfalls",
  "latitude": 43.309502,
  "longitude": -73.643997
}, {
  "name": "gold country",
  "state": "",
  "site": "goldcountry",
  "latitude": 38.732498,
  "longitude": -120.801003
}, {
  "name": "grand forks",
  "state": "",
  "site": "grandforks",
  "latitude": 47.925301,
  "longitude": -97.032898
}, {
  "name": "grand island",
  "state": " NE",
  "site": "grandisland",
  "latitude": 40.924999,
  "longitude": -98.341698
}, {
  "name": "grand rapids",
  "state": " MI",
  "site": "grandrapids",
  "latitude": 42.963299,
  "longitude": -85.668098
}, {
  "name": "great falls",
  "state": " MT",
  "site": "greatfalls",
  "latitude": 47.500198,
  "longitude": -111.301003
}, {
  "name": "green bay",
  "state": " WI",
  "site": "greenbay",
  "latitude": 44.519199,
  "longitude": -88.019699
}, {
  "name": "greensboro",
  "state": " NC",
  "site": "greensboro",
  "latitude": 36.072498,
  "longitude": -79.792198
}, {
  "name": "greenville  upstate",
  "state": "",
  "site": "greenville",
  "latitude": 34.852501,
  "longitude": -82.394203
}, {
  "name": "gulfport  biloxi",
  "state": "",
  "site": "gulfport",
  "latitude": 30.367201,
  "longitude": -89.092796
}, {
  "name": "hanford-corcoran",
  "state": "",
  "site": "hanford",
  "latitude": 36.3274,
  "longitude": -119.646004
}, {
  "name": "harrisburg",
  "state": " PA",
  "site": "harrisburg",
  "latitude": 40.273602,
  "longitude": -76.884697
}, {
  "name": "harrisonburg",
  "state": " VA",
  "site": "harrisonburg",
  "latitude": 38.443298,
  "longitude": -78.872803
}, {
  "name": "hartford",
  "state": " CT",
  "site": "hartford",
  "latitude": 41.763599,
  "longitude": -72.6856
}, {
  "name": "hattiesburg",
  "state": " MS",
  "site": "hattiesburg",
  "latitude": 31.3269,
  "longitude": -89.290298
}, {
  "name": "heartland florida",
  "state": "",
  "site": "cfl",
  "latitude": 27.5392,
  "longitude": -81.509903
}, {
  "name": "helena",
  "state": " MT",
  "site": "helena",
  "latitude": 46.592842,
  "longitude": -112.022095
}, {
  "name": "hickory  lenoir",
  "state": "",
  "site": "hickory",
  "latitude": 35.733101,
  "longitude": -81.3414
}, {
  "name": "high rockies",
  "state": "",
  "site": "rockies",
  "latitude": 39.1917,
  "longitude": -106.824699
}, {
  "name": "hilton head",
  "state": "",
  "site": "hiltonhead",
  "latitude": 32.1917,
  "longitude": -80.743301
}, {
  "name": "holland",
  "state": " MI",
  "site": "holland",
  "latitude": 42.787498,
  "longitude": -86.108902
}, {
  "name": "houma",
  "state": " LA",
  "site": "houma",
  "latitude": 29.5958,
  "longitude": -90.719498
}, {
  "name": "houston",
  "state": " TX",
  "site": "houston",
  "latitude": 29.7631,
  "longitude": -95.363098
}, {
  "name": "hudson valley",
  "state": " NY",
  "site": "hudsonvalley",
  "latitude": 41.576698,
  "longitude": -73.803398
}, {
  "name": "humboldt county",
  "state": "",
  "site": "humboldt",
  "latitude": 40.747398,
  "longitude": -123.987999
}, {
  "name": "huntington-ashland",
  "state": "",
  "site": "huntington",
  "latitude": 38.419201,
  "longitude": -82.445297
}, {
  "name": "huntsville  decatur",
  "state": "",
  "site": "huntsville",
  "latitude": 34.730301,
  "longitude": -86.586098
}, {
  "name": "imperial county",
  "state": "",
  "site": "imperial",
  "latitude": 32.9631,
  "longitude": -115.487999
}, {
  "name": "indianapolis",
  "state": "",
  "site": "indianapolis",
  "latitude": 39.768299,
  "longitude": -86.158096
}, {
  "name": "inland empire",
  "state": " CA",
  "site": "inlandempire",
  "latitude": 34.052799,
  "longitude": -117.627998
}, {
  "name": "iowa city",
  "state": " IA",
  "site": "iowacity",
  "latitude": 41.661098,
  "longitude": -91.529999
}, {
  "name": "ithaca",
  "state": " NY",
  "site": "ithaca",
  "latitude": 42.440601,
  "longitude": -76.496902
}, {
  "name": "jackson",
  "state": " MI",
  "site": "jxn",
  "latitude": 42.2458,
  "longitude": -84.401398
}, {
  "name": "jackson",
  "state": " MS",
  "site": "jackson",
  "latitude": 32.298599,
  "longitude": -90.1847
}, {
  "name": "jackson",
  "state": " TN",
  "site": "jacksontn",
  "latitude": 35.614399,
  "longitude": -88.813904
}, {
  "name": "jacksonville",
  "state": " FL",
  "site": "jacksonville",
  "latitude": 30.3319,
  "longitude": -81.6558
}, {
  "name": "jacksonville",
  "state": " NC",
  "site": "onslow",
  "latitude": 34.758801,
  "longitude": -77.4244
}, {
  "name": "janesville",
  "state": " WI",
  "site": "janesville",
  "latitude": 42.6828,
  "longitude": -89.0186
}, {
  "name": "jersey shore",
  "state": "",
  "site": "jerseyshore",
  "latitude": 40.2225,
  "longitude": -74.012199
}, {
  "name": "jonesboro",
  "state": " AR",
  "site": "jonesboro",
  "latitude": 35.842201,
  "longitude": -90.704201
}, {
  "name": "joplin",
  "state": " MO",
  "site": "joplin",
  "latitude": 37.084202,
  "longitude": -94.5131
}, {
  "name": "kalamazoo",
  "state": " MI",
  "site": "kalamazoo",
  "latitude": 42.291698,
  "longitude": -85.587196
}, {
  "name": "kalispell",
  "state": " MT",
  "site": "kalispell",
  "latitude": 48.195801,
  "longitude": -114.313004
}, {
  "name": "kansas city",
  "state": " MO",
  "site": "kansascity",
  "latitude": 39.099701,
  "longitude": -94.5783
}, {
  "name": "kenai peninsula",
  "state": "",
  "site": "kenai",
  "latitude": 60.554401,
  "longitude": -151.257996
}, {
  "name": "kennewick-pasco-richland",
  "state": "",
  "site": "kpr",
  "latitude": 46.211399,
  "longitude": -119.136002
}, {
  "name": "kenosha-racine",
  "state": "",
  "site": "racine",
  "latitude": 42.584702,
  "longitude": -87.821098
}, {
  "name": "killeen  temple  ft hood",
  "state": "",
  "site": "killeen",
  "latitude": 31.116899,
  "longitude": -97.727501
}, {
  "name": "kirksville",
  "state": " MO",
  "site": "kirksville",
  "latitude": 40.194801,
  "longitude": -92.583298
}, {
  "name": "klamath falls",
  "state": " OR",
  "site": "klamath",
  "latitude": 42.224899,
  "longitude": -121.781998
}, {
  "name": "knoxville",
  "state": " TN",
  "site": "knoxville",
  "latitude": 35.960602,
  "longitude": -83.920799
}, {
  "name": "kokomo",
  "state": " IN",
  "site": "kokomo",
  "latitude": 40.486401,
  "longitude": -86.133598
}, {
  "name": "la crosse",
  "state": " WI",
  "site": "lacrosse",
  "latitude": 43.801399,
  "longitude": -91.239403
}, {
  "name": "lafayette",
  "state": " LA",
  "site": "lafayette",
  "latitude": 30.2139,
  "longitude": -92.029404
}, {
  "name": "lafayette  west lafayette",
  "state": "",
  "site": "tippecanoe",
  "latitude": 40.416698,
  "longitude": -86.875298
}, {
  "name": "lake charles",
  "state": " LA",
  "site": "lakecharles",
  "latitude": 30.214701,
  "longitude": -93.208603
}, {
  "name": "lakeland",
  "state": " FL",
  "site": "lakeland",
  "latitude": 28.0392,
  "longitude": -81.949997
}, {
  "name": "lake of the ozarks",
  "state": "",
  "site": "loz",
  "latitude": 38.202499,
  "longitude": -92.626297
}, {
  "name": "lancaster",
  "state": " PA",
  "site": "lancaster",
  "latitude": 40.0378,
  "longitude": -76.305801
}, {
  "name": "lansing",
  "state": " MI",
  "site": "lansing",
  "latitude": 42.732498,
  "longitude": -84.555603
}, {
  "name": "laredo",
  "state": " TX",
  "site": "laredo",
  "latitude": 27.5061,
  "longitude": -99.507202
}, {
  "name": "la salle co",
  "state": "",
  "site": "lasalle",
  "latitude": 41.337639,
  "longitude": -89.082642
}, {
  "name": "las cruces",
  "state": " NM",
  "site": "lascruces",
  "latitude": 32.319698,
  "longitude": -106.764999
}, {
  "name": "las vegas",
  "state": "",
  "site": "lasvegas",
  "latitude": 36.174999,
  "longitude": -115.136002
}, {
  "name": "lawrence",
  "state": " KS",
  "site": "lawrence",
  "latitude": 38.971699,
  "longitude": -95.235001
}, {
  "name": "lawton",
  "state": " OK",
  "site": "lawton",
  "latitude": 34.608601,
  "longitude": -98.389999
}, {
  "name": "lehigh valley",
  "state": "",
  "site": "allentown",
  "latitude": 40.599998,
  "longitude": -75.5
}, {
  "name": "lewiston  clarkston",
  "state": "",
  "site": "lewiston",
  "latitude": 46.392399,
  "longitude": -116.992996
}, {
  "name": "lexington",
  "state": " KY",
  "site": "lexington",
  "latitude": 37.988701,
  "longitude": -84.477699
}, {
  "name": "lima  findlay",
  "state": "",
  "site": "limaohio",
  "latitude": 40.7425,
  "longitude": -84.105301
}, {
  "name": "lincoln",
  "state": " NE",
  "site": "lincoln",
  "latitude": 40.799999,
  "longitude": -96.666702
}, {
  "name": "little rock",
  "state": "",
  "site": "littlerock",
  "latitude": 34.746399,
  "longitude": -92.289398
}, {
  "name": "logan",
  "state": " UT",
  "site": "logan",
  "latitude": 41.7356,
  "longitude": -111.834
}, {
  "name": "long island",
  "state": " NY",
  "site": "longisland",
  "latitude": 40.822102,
  "longitude": -73.149696
}, {
  "name": "louisville",
  "state": " KY",
  "site": "louisville",
  "latitude": 38.2542,
  "longitude": -85.759399
}, {
  "name": "lubbock",
  "state": " TX",
  "site": "lubbock",
  "latitude": 33.577801,
  "longitude": -101.855003
}, {
  "name": "lynchburg",
  "state": " VA",
  "site": "lynchburg",
  "latitude": 37.403702,
  "longitude": -79.170197
}, {
  "name": "macon  warner robins",
  "state": "",
  "site": "macon",
  "latitude": 32.840599,
  "longitude": -83.6325
}, {
  "name": "madison",
  "state": " WI",
  "site": "madison",
  "latitude": 43.073101,
  "longitude": -89.4011
}, {
  "name": "maine",
  "state": "",
  "site": "maine",
  "latitude": 44.693199,
  "longitude": -69.334602
}, {
  "name": "manhattan",
  "state": " KS",
  "site": "ksu",
  "latitude": 39.183601,
  "longitude": -96.571404
}, {
  "name": "mankato",
  "state": " MN",
  "site": "mankato",
  "latitude": 44.163601,
  "longitude": -93.999199
}, {
  "name": "mansfield",
  "state": " OH",
  "site": "mansfield",
  "latitude": 40.758301,
  "longitude": -82.515602
}, {
  "name": "mason city",
  "state": " IA",
  "site": "masoncity",
  "latitude": 43.153599,
  "longitude": -93.200996
}, {
  "name": "mattoon-charleston",
  "state": "",
  "site": "mattoon",
  "latitude": 39.483101,
  "longitude": -88.372803
}, {
  "name": "mcallen  edinburg",
  "state": "",
  "site": "mcallen",
  "latitude": 26.2031,
  "longitude": -98.229698
}, {
  "name": "meadville",
  "state": " PA",
  "site": "meadville",
  "latitude": 41.641399,
  "longitude": -80.151497
}, {
  "name": "medford-ashland",
  "state": "",
  "site": "medford",
  "latitude": 42.326698,
  "longitude": -122.874001
}, {
  "name": "memphis",
  "state": " TN",
  "site": "memphis",
  "latitude": 35.149399,
  "longitude": -90.048897
}, {
  "name": "mendocino county",
  "state": "",
  "site": "mendocino",
  "latitude": 39.363098,
  "longitude": -123.43
}, {
  "name": "merced",
  "state": " CA",
  "site": "merced",
  "latitude": 37.3022,
  "longitude": -120.482002
}, {
  "name": "meridian",
  "state": " MS",
  "site": "meridian",
  "latitude": 32.3643,
  "longitude": -88.703697
}, {
  "name": "milwaukee",
  "state": " WI",
  "site": "milwaukee",
  "latitude": 43.038898,
  "longitude": -87.906403
}, {
  "name": "missoula",
  "state": " MT",
  "site": "missoula",
  "latitude": 46.872101,
  "longitude": -113.994003
}, {
  "name": "mobile",
  "state": " AL",
  "site": "mobile",
  "latitude": 30.694201,
  "longitude": -88.043098
}, {
  "name": "modesto",
  "state": " CA",
  "site": "modesto",
  "latitude": 37.639198,
  "longitude": -120.996002
}, {
  "name": "mohave county",
  "state": "",
  "site": "mohave",
  "latitude": 35.285999,
  "longitude": -114.083
}, {
  "name": "monroe",
  "state": " LA",
  "site": "monroe",
  "latitude": 32.5103,
  "longitude": -92.095001
}, {
  "name": "monroe",
  "state": " MI",
  "site": "monroemi",
  "latitude": 41.916,
  "longitude": -83.397697
}, {
  "name": "monterey bay",
  "state": "",
  "site": "monterey",
  "latitude": 36.6003,
  "longitude": -121.893997
}, {
  "name": "montgomery",
  "state": " AL",
  "site": "montgomery",
  "latitude": 32.366699,
  "longitude": -86.300003
}, {
  "name": "morgantown",
  "state": " WV",
  "site": "morgantown",
  "latitude": 39.629398,
  "longitude": -79.9561
}, {
  "name": "moses lake",
  "state": " WA",
  "site": "moseslake",
  "latitude": 47.1301,
  "longitude": -119.278
}, {
  "name": "muncie  anderson",
  "state": "",
  "site": "muncie",
  "latitude": 40.193298,
  "longitude": -85.386398
}, {
  "name": "muskegon",
  "state": " MI",
  "site": "muskegon",
  "latitude": 43.2342,
  "longitude": -86.248299
}, {
  "name": "myrtle beach",
  "state": " SC",
  "site": "myrtlebeach",
  "latitude": 33.6889,
  "longitude": -78.886902
}, {
  "name": "nashville",
  "state": " TN",
  "site": "nashville",
  "latitude": 36.165798,
  "longitude": -86.784401
}, {
  "name": "new hampshire",
  "state": "",
  "site": "nh",
  "latitude": 43.654099,
  "longitude": -71.564201
}, {
  "name": "new haven",
  "state": " CT",
  "site": "newhaven",
  "latitude": 41.308102,
  "longitude": -72.928596
}, {
  "name": "new orleans",
  "state": "",
  "site": "neworleans",
  "latitude": 29.972799,
  "longitude": -90.058998
}, {
  "name": "new river valley",
  "state": "",
  "site": "blacksburg",
  "latitude": 37.229401,
  "longitude": -80.4142
}, {
  "name": "norfolk  hampton roads",
  "state": "",
  "site": "norfolk",
  "latitude": 36.84,
  "longitude": -76.269997
}, {
  "name": "north central FL",
  "state": "",
  "site": "lakecity",
  "latitude": 30.189199,
  "longitude": -82.639503
}, {
  "name": "north dakota",
  "state": "",
  "site": "nd",
  "latitude": 47.5,
  "longitude": -100.5
}, {
  "name": "northeast SD",
  "state": "",
  "site": "nesd",
  "latitude": 45.3367,
  "longitude": -97.646484
}, {
  "name": "northern michigan",
  "state": "",
  "site": "nmi",
  "latitude": 44.459301,
  "longitude": -84.814499
}, {
  "name": "northern panhandle",
  "state": "",
  "site": "wheeling",
  "latitude": 40.0639,
  "longitude": -80.7211
}, {
  "name": "northern WI",
  "state": "",
  "site": "northernwi",
  "latitude": 45.638901,
  "longitude": -89.412498
}, {
  "name": "north jersey",
  "state": "",
  "site": "newjersey",
  "latitude": 40.91,
  "longitude": -74.172997
}, {
  "name": "north mississippi",
  "state": "",
  "site": "northmiss",
  "latitude": 34.358799,
  "longitude": -89.5261
}, {
  "name": "north platte",
  "state": " NE",
  "site": "northplatte",
  "latitude": 41.123901,
  "longitude": -100.764999
}, {
  "name": "northwest CT",
  "state": "",
  "site": "nwct",
  "latitude": 41.914501,
  "longitude": -73.2761
}, {
  "name": "northwest GA",
  "state": "",
  "site": "nwga",
  "latitude": 34.5,
  "longitude": -84.942001
}, {
  "name": "northwest KS",
  "state": "",
  "site": "nwks",
  "latitude": 39.095963,
  "longitude": -100.50293
}, {
  "name": "northwest OK",
  "state": "",
  "site": "enid",
  "latitude": 36.431702,
  "longitude": -97.895302
}, {
  "name": "ocala",
  "state": " FL",
  "site": "ocala",
  "latitude": 29.186899,
  "longitude": -82.140297
}, {
  "name": "odessa  midland",
  "state": "",
  "site": "odessa",
  "latitude": 31.8456,
  "longitude": -102.366997
}, {
  "name": "ogden-clearfield",
  "state": "",
  "site": "ogden",
  "latitude": 41.223099,
  "longitude": -111.973
}, {
  "name": "okaloosa  walton",
  "state": "",
  "site": "okaloosa",
  "latitude": 30.7621,
  "longitude": -86.570503
}, {
  "name": "oklahoma city",
  "state": "",
  "site": "oklahomacity",
  "latitude": 35.467499,
  "longitude": -97.516098
}, {
  "name": "olympic peninsula",
  "state": "",
  "site": "olympic",
  "latitude": 47.798302,
  "longitude": -123.617996
}, {
  "name": "omaha  council bluffs",
  "state": "",
  "site": "omaha",
  "latitude": 41.258598,
  "longitude": -95.9375
}, {
  "name": "oneonta",
  "state": " NY",
  "site": "oneonta",
  "latitude": 42.447781,
  "longitude": -75.06958
}, {
  "name": "orange county",
  "state": " CA",
  "site": "orangecounty",
  "latitude": 33.731499,
  "longitude": -117.862
}, {
  "name": "oregon coast",
  "state": "",
  "site": "oregoncoast",
  "latitude": 43.396099,
  "longitude": -124.167
}, {
  "name": "orlando",
  "state": " FL",
  "site": "orlando",
  "latitude": 28.538099,
  "longitude": -81.379402
}, {
  "name": "outer banks",
  "state": "",
  "site": "outerbanks",
  "latitude": 36.031898,
  "longitude": -75.676598
}, {
  "name": "owensboro",
  "state": " KY",
  "site": "owensboro",
  "latitude": 37.7742,
  "longitude": -87.113297
}, {
  "name": "palm springs",
  "state": " CA",
  "site": "palmsprings",
  "latitude": 33.830299,
  "longitude": -116.543999
}, {
  "name": "panama city",
  "state": " FL",
  "site": "panamacity",
  "latitude": 30.1586,
  "longitude": -85.660301
}, {
  "name": "parkersburg-marietta",
  "state": "",
  "site": "parkersburg",
  "latitude": 39.266701,
  "longitude": -81.561699
}, {
  "name": "pensacola",
  "state": " FL",
  "site": "pensacola",
  "latitude": 30.421101,
  "longitude": -87.216904
}, {
  "name": "peoria",
  "state": " IL",
  "site": "peoria",
  "latitude": 40.6936,
  "longitude": -89.588898
}, {
  "name": "philadelphia",
  "state": "",
  "site": "philadelphia",
  "latitude": 39.952202,
  "longitude": -75.1642
}, {
  "name": "pierre  central SD",
  "state": "",
  "site": "csd",
  "latitude": 44.551334,
  "longitude": -100.579834
}, {
  "name": "pittsburgh",
  "state": " PA",
  "site": "pittsburgh",
  "latitude": 40.440601,
  "longitude": -79.996101
}, {
  "name": "plattsburgh-adirondacks",
  "state": "",
  "site": "plattsburgh",
  "latitude": 44.699402,
  "longitude": -73.4533
}, {
  "name": "poconos",
  "state": "",
  "site": "poconos",
  "latitude": 41.248611,
  "longitude": -75.248611
}, {
  "name": "port huron",
  "state": " MI",
  "site": "porthuron",
  "latitude": 42.970798,
  "longitude": -82.425003
}, {
  "name": "potsdam-canton-massena",
  "state": "",
  "site": "potsdam",
  "latitude": 44.668652,
  "longitude": -74.998169
}, {
  "name": "prescott",
  "state": " AZ",
  "site": "prescott",
  "latitude": 34.540001,
  "longitude": -112.468002
}, {
  "name": "provo  orem",
  "state": "",
  "site": "provo",
  "latitude": 40.233898,
  "longitude": -111.657997
}, {
  "name": "pueblo",
  "state": " CO",
  "site": "pueblo",
  "latitude": 38.254398,
  "longitude": -104.609001
}, {
  "name": "pullman  moscow",
  "state": "",
  "site": "pullman",
  "latitude": 46.732498,
  "longitude": -117.171997
}, {
  "name": "quad cities",
  "state": " IAIL",
  "site": "quadcities",
  "latitude": 41.511299,
  "longitude": -90.594398
}, {
  "name": "raleigh  durham  CH",
  "state": "",
  "site": "raleigh",
  "latitude": 35.7719,
  "longitude": -78.638901
}, {
  "name": "rapid city  west SD",
  "state": "",
  "site": "rapidcity",
  "latitude": 44.080502,
  "longitude": -103.231003
}, {
  "name": "reading",
  "state": " PA",
  "site": "reading",
  "latitude": 40.335602,
  "longitude": -75.9272
}, {
  "name": "redding",
  "state": " CA",
  "site": "redding",
  "latitude": 40.5867,
  "longitude": -122.390999
}, {
  "name": "reno  tahoe",
  "state": "",
  "site": "reno",
  "latitude": 39.529701,
  "longitude": -119.813004
}, {
  "name": "rhode island",
  "state": "",
  "site": "providence",
  "latitude": 41.8302,
  "longitude": -71.409103
}, {
  "name": "richmond",
  "state": " IN",
  "site": "richmondin",
  "latitude": 39.829632,
  "longitude": -84.890671
}, {
  "name": "richmond",
  "state": " VA",
  "site": "richmond",
  "latitude": 37.5383,
  "longitude": -77.461502
}, {
  "name": "roanoke",
  "state": " VA",
  "site": "roanoke",
  "latitude": 37.274101,
  "longitude": -79.942001
}, {
  "name": "rochester",
  "state": " MN",
  "site": "rmn",
  "latitude": 44.021702,
  "longitude": -92.469704
}, {
  "name": "rochester",
  "state": " NY",
  "site": "rochester",
  "latitude": 43.154701,
  "longitude": -77.615799
}, {
  "name": "rockford",
  "state": " IL",
  "site": "rockford",
  "latitude": 42.271099,
  "longitude": -89.093903
}, {
  "name": "roseburg",
  "state": " OR",
  "site": "roseburg",
  "latitude": 43.216702,
  "longitude": -123.341003
}, {
  "name": "roswell  carlsbad",
  "state": "",
  "site": "roswell",
  "latitude": 33.394199,
  "longitude": -104.522003
}, {
  "name": "sacramento",
  "state": "",
  "site": "sacramento",
  "latitude": 38.581699,
  "longitude": -121.492996
}, {
  "name": "saginaw-midland-baycity",
  "state": "",
  "site": "saginaw",
  "latitude": 43.419399,
  "longitude": -83.950798
}, {
  "name": "salem",
  "state": " OR",
  "site": "salem",
  "latitude": 44.9431,
  "longitude": -123.033997
}, {
  "name": "salina",
  "state": " KS",
  "site": "salina",
  "latitude": 38.825001,
  "longitude": -97.607498
}, {
  "name": "salt lake city",
  "state": "",
  "site": "saltlakecity",
  "latitude": 40.760799,
  "longitude": -111.889999
}, {
  "name": "san angelo",
  "state": " TX",
  "site": "sanangelo",
  "latitude": 31.452999,
  "longitude": -100.452499
}, {
  "name": "san antonio",
  "state": "",
  "site": "sanantonio",
  "latitude": 29.423901,
  "longitude": -98.493301
}, {
  "name": "sandusky",
  "state": " OH",
  "site": "sandusky",
  "latitude": 41.448898,
  "longitude": -82.708099
}, {
  "name": "san luis obispo",
  "state": "",
  "site": "slo",
  "latitude": 35.282799,
  "longitude": -120.658997
}, {
  "name": "san marcos",
  "state": " TX",
  "site": "sanmarcos",
  "latitude": 29.883101,
  "longitude": -97.941101
}, {
  "name": "santa barbara",
  "state": "",
  "site": "santabarbara",
  "latitude": 34.420799,
  "longitude": -119.696999
}, {
  "name": "santa fe  taos",
  "state": "",
  "site": "santafe",
  "latitude": 35.686901,
  "longitude": -105.936996
}, {
  "name": "santa maria",
  "state": " CA",
  "site": "santamaria",
  "latitude": 34.963799,
  "longitude": -120.433296
}, {
  "name": "sarasota-bradenton",
  "state": "",
  "site": "sarasota",
  "latitude": 27.3361,
  "longitude": -82.5308
}, {
  "name": "savannah  hinesville",
  "state": "",
  "site": "savannah",
  "latitude": 32.050701,
  "longitude": -81.103798
}, {
  "name": "scottsbluff  panhandle",
  "state": "",
  "site": "scottsbluff",
  "latitude": 41.8666,
  "longitude": -103.667
}, {
  "name": "scranton  wilkes-barre",
  "state": "",
  "site": "scranton",
  "latitude": 41.408901,
  "longitude": -75.662804
}, {
  "name": "sheboygan",
  "state": " WI",
  "site": "sheboygan",
  "latitude": 43.750801,
  "longitude": -87.714401
}, {
  "name": "show low",
  "state": " AZ",
  "site": "showlow",
  "latitude": 34.2542,
  "longitude": -110.029999
}, {
  "name": "shreveport",
  "state": " LA",
  "site": "shreveport",
  "latitude": 32.468102,
  "longitude": -93.771103
}, {
  "name": "sierra vista",
  "state": " AZ",
  "site": "sierravista",
  "latitude": 31.554399,
  "longitude": -110.303001
}, {
  "name": "sioux city",
  "state": " IA",
  "site": "siouxcity",
  "latitude": 42.5,
  "longitude": -96.400002
}, {
  "name": "sioux falls  SE SD",
  "state": "",
  "site": "siouxfalls",
  "latitude": 43.549999,
  "longitude": -96.700302
}, {
  "name": "siskiyou county",
  "state": "",
  "site": "siskiyou",
  "latitude": 41.208199,
  "longitude": -122.272003
}, {
  "name": "skagit  island  SJI",
  "state": "",
  "site": "skagit",
  "latitude": 48.384499,
  "longitude": -122.357002
}, {
  "name": "south bend  michiana",
  "state": "",
  "site": "southbend",
  "latitude": 41.6833,
  "longitude": -86.25
}, {
  "name": "south coast",
  "state": " MA",
  "site": "southcoast",
  "latitude": 41.6385,
  "longitude": -71.048599
}, {
  "name": "south dakota",
  "state": "",
  "site": "sd",
  "latitude": 44.296101,
  "longitude": -99.236702
}, {
  "name": "southeast alaska",
  "state": "",
  "site": "juneau",
  "latitude": 58.355629,
  "longitude": -134.571533
}, {
  "name": "southeast IA",
  "state": "",
  "site": "ottumwa",
  "latitude": 41.0075,
  "longitude": -92.408798
}, {
  "name": "southeast KS",
  "state": "",
  "site": "seks",
  "latitude": 37.230328,
  "longitude": -95.718384
}, {
  "name": "southeast missouri",
  "state": "",
  "site": "semo",
  "latitude": 36.879601,
  "longitude": -89.587997
}, {
  "name": "southern illinois",
  "state": "",
  "site": "carbondale",
  "latitude": 37.7272,
  "longitude": -89.216698
}, {
  "name": "southern maryland",
  "state": "",
  "site": "smd",
  "latitude": 38.534199,
  "longitude": -76.783401
}, {
  "name": "southern WV",
  "state": "",
  "site": "swv",
  "latitude": 37.779499,
  "longitude": -81.183296
}, {
  "name": "south jersey",
  "state": "",
  "site": "southjersey",
  "latitude": 39.480301,
  "longitude": -75.013901
}, {
  "name": "southwest KS",
  "state": "",
  "site": "swks",
  "latitude": 37.04641,
  "longitude": -100.931396
}, {
  "name": "southwest michigan",
  "state": "",
  "site": "swmi",
  "latitude": 41.984001,
  "longitude": -86.066902
}, {
  "name": "southwest MN",
  "state": "",
  "site": "marshall",
  "latitude": 44.447201,
  "longitude": -95.787804
}, {
  "name": "southwest MS",
  "state": "",
  "site": "natchez",
  "latitude": 31.554199,
  "longitude": -91.387497
}, {
  "name": "southwest TX",
  "state": "",
  "site": "bigbend",
  "latitude": 29.200123,
  "longitude": -103.293457
}, {
  "name": "southwest VA",
  "state": "",
  "site": "swva",
  "latitude": 36.892803,
  "longitude": -82.084351
}, {
  "name": "space coast",
  "state": " FL",
  "site": "spacecoast",
  "latitude": 28.613501,
  "longitude": -80.693199
}, {
  "name": "spokane  coeur d'alene",
  "state": "",
  "site": "spokane",
  "latitude": 47.658901,
  "longitude": -117.425003
}, {
  "name": "springfield",
  "state": " IL",
  "site": "springfieldil",
  "latitude": 39.801701,
  "longitude": -89.6436
}, {
  "name": "springfield",
  "state": " MO",
  "site": "springfield",
  "latitude": 37.215302,
  "longitude": -93.298103
}, {
  "name": "state college",
  "state": " PA",
  "site": "pennstate",
  "latitude": 40.793301,
  "longitude": -77.860298
}, {
  "name": "statesboro",
  "state": " GA",
  "site": "statesboro",
  "latitude": 32.448799,
  "longitude": -81.783203
}, {
  "name": "st augustine",
  "state": " FL",
  "site": "staugustine",
  "latitude": 29.8944,
  "longitude": -81.314697
}, {
  "name": "st cloud",
  "state": " MN",
  "site": "stcloud",
  "latitude": 45.560799,
  "longitude": -94.162201
}, {
  "name": "st george",
  "state": " UT",
  "site": "stgeorge",
  "latitude": 37.095299,
  "longitude": -113.578003
}, {
  "name": "stillwater",
  "state": " OK",
  "site": "stillwater",
  "latitude": 36.115601,
  "longitude": -97.058098
}, {
  "name": "st joseph",
  "state": "",
  "site": "stjoseph",
  "latitude": 39.7686,
  "longitude": -94.846603
}, {
  "name": "st louis",
  "state": " MO",
  "site": "stlouis",
  "latitude": 38.627701,
  "longitude": -90.242798
}, {
  "name": "stockton",
  "state": " CA",
  "site": "stockton",
  "latitude": 37.957802,
  "longitude": -121.290001
}, {
  "name": "susanville",
  "state": " CA",
  "site": "susanville",
  "latitude": 40.416302,
  "longitude": -120.653
}, {
  "name": "syracuse",
  "state": " NY",
  "site": "syracuse",
  "latitude": 43.0481,
  "longitude": -76.147797
}, {
  "name": "tallahassee",
  "state": "",
  "site": "tallahassee",
  "latitude": 30.438101,
  "longitude": -84.2808
}, {
  "name": "terre haute",
  "state": " IN",
  "site": "terrehaute",
  "latitude": 39.466702,
  "longitude": -87.413902
}, {
  "name": "texarkana",
  "state": "",
  "site": "texarkana",
  "latitude": 33.424999,
  "longitude": -94.047501
}, {
  "name": "texoma",
  "state": "",
  "site": "texoma",
  "latitude": 33.832001,
  "longitude": -96.571098
}, {
  "name": "the thumb",
  "state": " MI",
  "site": "thumb",
  "latitude": 43.417019,
  "longitude": -83.092346
}, {
  "name": "toledo",
  "state": " OH",
  "site": "toledo",
  "latitude": 41.663898,
  "longitude": -83.555298
}, {
  "name": "topeka",
  "state": " KS",
  "site": "topeka",
  "latitude": 39.048302,
  "longitude": -95.677803
}, {
  "name": "treasure coast",
  "state": " FL",
  "site": "treasure",
  "latitude": 27.230801,
  "longitude": -80.226303
}, {
  "name": "tri-cities",
  "state": " TN",
  "site": "tricities",
  "latitude": 36.4174,
  "longitude": -82.440697
}, {
  "name": "tucson",
  "state": " AZ",
  "site": "tucson",
  "latitude": 32.221699,
  "longitude": -110.926003
}, {
  "name": "tulsa",
  "state": " OK",
  "site": "tulsa",
  "latitude": 36.1539,
  "longitude": -95.9925
}, {
  "name": "tuscaloosa",
  "state": "",
  "site": "tuscaloosa",
  "latitude": 33.209702,
  "longitude": -87.569199
}, {
  "name": "tuscarawas co",
  "state": "",
  "site": "tuscarawas",
  "latitude": 40.4501,
  "longitude": -81.466499
}, {
  "name": "twin falls",
  "state": " ID",
  "site": "twinfalls",
  "latitude": 42.563099,
  "longitude": -114.459999
}, {
  "name": "twin tiers NYPA",
  "state": "",
  "site": "twintiers",
  "latitude": 41.875301,
  "longitude": -78.875
}, {
  "name": "tyler  east TX",
  "state": "",
  "site": "easttexas",
  "latitude": 32.351101,
  "longitude": -95.300797
}, {
  "name": "upper peninsula",
  "state": " MI",
  "site": "up",
  "latitude": 46.550098,
  "longitude": -87.408302
}, {
  "name": "utica-rome-oneida",
  "state": "",
  "site": "utica",
  "latitude": 43.1008,
  "longitude": -75.233101
}, {
  "name": "valdosta",
  "state": " GA",
  "site": "valdosta",
  "latitude": 30.8325,
  "longitude": -83.278603
}, {
  "name": "ventura county",
  "state": "",
  "site": "ventura",
  "latitude": 34.277,
  "longitude": -119.044998
}, {
  "name": "vermont",
  "state": "",
  "site": "vermont",
  "latitude": 44.461201,
  "longitude": -73.193703
}, {
  "name": "victoria",
  "state": " TX",
  "site": "victoriatx",
  "latitude": 28.805,
  "longitude": -97.003304
}, {
  "name": "visalia-tulare",
  "state": "",
  "site": "visalia",
  "latitude": 36.330299,
  "longitude": -119.291
}, {
  "name": "waco",
  "state": " TX",
  "site": "waco",
  "latitude": 31.5492,
  "longitude": -97.1464
}, {
  "name": "waterloo  cedar falls",
  "state": "",
  "site": "waterloo",
  "latitude": 42.4925,
  "longitude": -92.345802
}, {
  "name": "watertown",
  "state": " NY",
  "site": "watertown",
  "latitude": 43.974701,
  "longitude": -75.911102
}, {
  "name": "wausau",
  "state": " WI",
  "site": "wausau",
  "latitude": 44.959202,
  "longitude": -89.629997
}, {
  "name": "wenatchee",
  "state": " WA",
  "site": "wenatchee",
  "latitude": 47.423599,
  "longitude": -120.308998
}, {
  "name": "western IL",
  "state": "",
  "site": "quincy",
  "latitude": 39.935013,
  "longitude": -91.389771
}, {
  "name": "western KY",
  "state": "",
  "site": "westky",
  "latitude": 37.081474,
  "longitude": -88.077393
}, {
  "name": "western maryland",
  "state": "",
  "site": "westmd",
  "latitude": 39.651699,
  "longitude": -78.7658
}, {
  "name": "western massachusetts",
  "state": "",
  "site": "westernmass",
  "latitude": 42.349998,
  "longitude": -73.0
}, {
  "name": "western slope",
  "state": "",
  "site": "westslope",
  "latitude": 39.0704,
  "longitude": -108.552002
}, {
  "name": "west virginia (old)",
  "state": "",
  "site": "wv",
  "latitude": 38.709999,
  "longitude": -80.660004
}, {
  "name": "wichita falls",
  "state": " TX",
  "site": "wichitafalls",
  "latitude": 33.913601,
  "longitude": -98.493103
}, {
  "name": "wichita",
  "state": " KS",
  "site": "wichita",
  "latitude": 37.6922,
  "longitude": -97.337196
}, {
  "name": "williamsport",
  "state": " PA",
  "site": "williamsport",
  "latitude": 41.2411,
  "longitude": -77.001404
}, {
  "name": "wilmington",
  "state": " NC",
  "site": "wilmington",
  "latitude": 34.225601,
  "longitude": -77.945
}, {
  "name": "winchester",
  "state": " VA",
  "site": "winchester",
  "latitude": 39.178299,
  "longitude": -78.166603
}, {
  "name": "winston-salem",
  "state": " NC",
  "site": "winstonsalem",
  "latitude": 36.099701,
  "longitude": -80.2444
}, {
  "name": "worcester  central MA",
  "state": "",
  "site": "worcester",
  "latitude": 42.262501,
  "longitude": -71.802803
}, {
  "name": "wyoming",
  "state": "",
  "site": "wyoming",
  "latitude": 43.004002,
  "longitude": -108.153999
}, {
  "name": "yakima",
  "state": " WA",
  "site": "yakima",
  "latitude": 46.6022,
  "longitude": -120.504997
}, {
  "name": "york",
  "state": " PA",
  "site": "york",
  "latitude": 39.962502,
  "longitude": -76.728104
}, {
  "name": "youngstown",
  "state": " OH",
  "site": "youngstown",
  "latitude": 41.099701,
  "longitude": -80.649696
}, {
  "name": "yuba-sutter",
  "state": " CA",
  "site": "yubasutter",
  "latitude": 39.144402,
  "longitude": -121.647003
}, {
  "name": "yuma",
  "state": " AZ",
  "site": "yuma",
  "latitude": 32.7253,
  "longitude": -114.624001
}, {
  "name": "zanesville  cambridge",
  "state": "",
  "site": "zanesville",
  "latitude": 39.9403,
  "longitude": -82.013199
}]